<?xml version="1.0" encoding="UTF-8"?>
<doc>
    <objects>
        <object class="WED_AirportNode" id="1543" parent_id="1534">
            <sources/>
            <viewers/>
            <children/>
            <hierarchy hidden="0" locked="0" name="Node 3"/>
            <point ctrl_latitude_hi="0.000000000" ctrl_latitude_lo="0.000000000" ctrl_longitude_hi="0.000000000" ctrl_longitude_lo="0.000000000" latitude="50.085004272" longitude="20.197703375" split="0"/>
            <markings/>
        </object>
        <object class="WED_AirportNode" id="1544" parent_id="1534">
            <sources/>
            <viewers/>
            <children/>
            <hierarchy hidden="0" locked="0" name="Node 3"/>
            <point ctrl_latitude_hi="0.000000000" ctrl_latitude_lo="0.000000000" ctrl_longitude_hi="0.000000000" ctrl_longitude_lo="0.000000000" latitude="50.085004272" longitude="20.197703375" split="0"/>
            <markings/>
        </object>
        <object class="WED_Root" id="1" parent_id="0">
            <sources/>
            <viewers/>
            <children>
                <child id="2"/>
                <child id="3"/>
                <child id="4"/>
            </children>
            <hierarchy name="root"/>
        </object>
        <object class="WED_AirportNode" id="1545" parent_id="1534">
            <sources/>
            <viewers/>
            <children/>
            <hierarchy hidden="0" locked="0" name="Node 3"/>
            <point ctrl_latitude_hi="0.000000000" ctrl_latitude_lo="0.000000000" ctrl_longitude_hi="0.000000000" ctrl_longitude_lo="0.000000000" latitude="50.085004272" longitude="20.197703375" split="0"/>
            <markings/>
        </object>
        <object class="WED_Select" id="2" parent_id="1">
            <sources/>
            <viewers/>
            <children/>
            <hierarchy name="selection"/>
            <selection>
                <sel id="248"/>
            </selection>
        </object>
        <object class="WED_AirportNode" id="1546" parent_id="1534">
            <sources/>
            <viewers/>
            <children/>
            <hierarchy hidden="0" locked="0" name="Node 3"/>
            <point ctrl_latitude_hi="0.000000000" ctrl_latitude_lo="0.000000000" ctrl_longitude_hi="0.000000000" ctrl_longitude_lo="0.000000000" latitude="50.085004272" longitude="20.197703375" split="0"/>
            <markings/>
        </object>
        <object class="WED_KeyObjects" id="3" parent_id="1">
            <sources/>
            <viewers/>
            <children/>
            <hierarchy name="choices"/>
            <keys>
                <key id="5" name="airport"/>
            </keys>
        </object>
        <object class="WED_AirportNode" id="1547" parent_id="1534">
            <sources/>
            <viewers/>
            <children/>
            <hierarchy hidden="0" locked="0" name="Node 4"/>
            <point ctrl_latitude_hi="0.000000000" ctrl_latitude_lo="0.000000000" ctrl_longitude_hi="0.000000000" ctrl_longitude_lo="0.000000000" latitude="50.085004272" longitude="20.197660240" split="0"/>
            <markings/>
        </object>
        <object class="WED_Group" id="4" parent_id="1">
            <sources/>
            <viewers/>
            <children>
                <child id="1980"/>
                <child id="5"/>
            </children>
            <hierarchy hidden="0" locked="0" name="world"/>
        </object>
        <object class="WED_AirportNode" id="1548" parent_id="1534">
            <sources/>
            <viewers/>
            <children/>
            <hierarchy hidden="0" locked="0" name="Node 4"/>
            <point ctrl_latitude_hi="0.000000000" ctrl_latitude_lo="0.000000000" ctrl_longitude_hi="0.000000000" ctrl_longitude_lo="0.000000000" latitude="50.085004272" longitude="20.197660240" split="0"/>
            <markings/>
        </object>
        <object class="WED_Airport" id="5" parent_id="4">
            <sources/>
            <viewers/>
            <children>
                <child id="185"/>
                <child id="139"/>
                <child id="1807"/>
                <child id="1979"/>
                <child id="9"/>
                <child id="12"/>
                <child id="119"/>
            </children>
            <hierarchy hidden="0" locked="0" name="Pobiednik Wielki"/>
            <airport always_flatten="0" elevation="197.5" has_atc="1" icao="EPKP" kind="Airport" scenery_id="-1"/>
            <meta_data/>
        </object>
        <object class="WED_AirportNode" id="1549" parent_id="1534">
            <sources/>
            <viewers/>
            <children/>
            <hierarchy hidden="0" locked="0" name="Node 4"/>
            <point ctrl_latitude_hi="0.000000000" ctrl_latitude_lo="0.000000000" ctrl_longitude_hi="0.000000000" ctrl_longitude_lo="0.000000000" latitude="50.085004272" longitude="20.197660240" split="0"/>
            <markings/>
        </object>
        <object class="WED_Runway" id="6" parent_id="9">
            <sources/>
            <viewers/>
            <children>
                <child id="7"/>
                <child id="8"/>
            </children>
            <hierarchy hidden="0" locked="1" name="09R/27L"/>
            <line width="47.00"/>
            <runway REIL1="None" REIL2="None" TDZL1="0" TDZL2="0" app_lites1="None" app_lites2="None" blastpad1="0.0" blastpad2="0.0" center_lites="0" displaced1="0.0" displaced2="0.0" distance_signs="0" edge_lites="None" markings1="Non-Precision (US)" markings2="Non-Precision (US)" roughness="0.00" shoulder="None" surface="Grass"/>
        </object>
        <object class="WED_AirportNode" id="1550" parent_id="1534">
            <sources/>
            <viewers/>
            <children/>
            <hierarchy hidden="0" locked="0" name="Node 4"/>
            <point ctrl_latitude_hi="0.000000000" ctrl_latitude_lo="0.000000000" ctrl_longitude_hi="0.000000000" ctrl_longitude_lo="0.000000000" latitude="50.085004272" longitude="20.197660240" split="0"/>
            <markings/>
        </object>
        <object class="WED_RunwayNode" id="7" parent_id="6">
            <sources/>
            <viewers/>
            <children/>
            <hierarchy hidden="0" locked="0" name="unnamed entity"/>
            <point latitude="50.086717090" longitude="20.195229549"/>
        </object>
        <object class="WED_AirportChain" id="1551" parent_id="1533">
            <sources/>
            <viewers/>
            <children>
                <child id="1552"/>
                <child id="1553"/>
                <child id="1554"/>
                <child id="1555"/>
                <child id="1556"/>
                <child id="1557"/>
                <child id="1558"/>
                <child id="1559"/>
                <child id="1560"/>
                <child id="1561"/>
                <child id="1562"/>
                <child id="1563"/>
                <child id="1564"/>
                <child id="1565"/>
                <child id="1566"/>
                <child id="1567"/>
            </children>
            <hierarchy hidden="0" locked="0" name="Taxiway 1 Outer Ring"/>
            <airport_chain closed="1"/>
        </object>
        <object class="WED_RunwayNode" id="8" parent_id="6">
            <sources/>
            <viewers/>
            <children/>
            <hierarchy hidden="0" locked="0" name="unnamed entity"/>
            <point latitude="50.086057999" longitude="20.209217484"/>
        </object>
        <object class="WED_AirportNode" id="1552" parent_id="1551">
            <sources/>
            <viewers/>
            <children/>
            <hierarchy hidden="0" locked="0" name="Node 1"/>
            <point ctrl_latitude_hi="0.000000000" ctrl_latitude_lo="0.000000000" ctrl_longitude_hi="0.000000000" ctrl_longitude_lo="0.000000000" latitude="50.085654766" longitude="20.197733651" split="0"/>
            <markings/>
        </object>
        <object class="WED_Group" id="9" parent_id="5">
            <sources/>
            <viewers/>
            <children>
                <child id="212"/>
                <child id="6"/>
                <child id="10"/>
            </children>
            <hierarchy hidden="0" locked="0" name="Runways"/>
        </object>
        <object class="WED_AirportNode" id="1553" parent_id="1551">
            <sources/>
            <viewers/>
            <children/>
            <hierarchy hidden="0" locked="0" name="Node 1"/>
            <point ctrl_latitude_hi="0.000000000" ctrl_latitude_lo="0.000000000" ctrl_longitude_hi="0.000000000" ctrl_longitude_lo="0.000000000" latitude="50.085654766" longitude="20.197733651" split="0"/>
            <markings/>
        </object>
        <object class="WED_Helipad" id="10" parent_id="9">
            <sources/>
            <viewers/>
            <children/>
            <hierarchy hidden="0" locked="0" name="H1"/>
            <point heading="358.36" latitude="50.084605252" length="32.9" longitude="20.203949760" width="35.2"/>
            <helipad lights="None" markings="Default" roughness="0.25" shoulder="None" surface="Concrete"/>
        </object>
        <object class="WED_AirportNode" id="1554" parent_id="1551">
            <sources/>
            <viewers/>
            <children/>
            <hierarchy hidden="0" locked="0" name="Node 1"/>
            <point ctrl_latitude_hi="0.000000000" ctrl_latitude_lo="0.000000000" ctrl_longitude_hi="0.000000000" ctrl_longitude_lo="0.000000000" latitude="50.085654766" longitude="20.197733651" split="0"/>
            <markings/>
        </object>
        <object class="WED_Taxiway" id="11" parent_id="1807">
            <sources/>
            <viewers/>
            <children>
                <child id="13"/>
            </children>
            <hierarchy hidden="0" locked="0" name="marker L"/>
            <taxiway heading="0.00" roughness="0.10" surface="Concrete"/>
        </object>
        <object class="WED_AirportNode" id="1555" parent_id="1551">
            <sources/>
            <viewers/>
            <children/>
            <hierarchy hidden="0" locked="0" name="Node 1"/>
            <point ctrl_latitude_hi="0.000000000" ctrl_latitude_lo="0.000000000" ctrl_longitude_hi="0.000000000" ctrl_longitude_lo="0.000000000" latitude="50.085654766" longitude="20.197733651" split="0"/>
            <markings/>
        </object>
        <object class="WED_Group" id="12" parent_id="5">
            <sources/>
            <viewers/>
            <children>
                <child id="60"/>
                <child id="77"/>
                <child id="102"/>
                <child id="173"/>
                <child id="249"/>
                <child id="243"/>
            </children>
            <hierarchy hidden="0" locked="0" name="Taxiways"/>
        </object>
        <object class="WED_AirportNode" id="1556" parent_id="1551">
            <sources/>
            <viewers/>
            <children/>
            <hierarchy hidden="0" locked="0" name="Node 2"/>
            <point ctrl_latitude_hi="0.000000000" ctrl_latitude_lo="0.000000000" ctrl_longitude_hi="0.000000000" ctrl_longitude_lo="0.000000000" latitude="50.085653770" longitude="20.197775558" split="0"/>
            <markings/>
        </object>
        <object class="WED_AirportChain" id="13" parent_id="11">
            <sources/>
            <viewers/>
            <children>
                <child id="14"/>
                <child id="15"/>
                <child id="16"/>
                <child id="17"/>
            </children>
            <hierarchy hidden="0" locked="0" name="unnamed entity"/>
            <airport_chain closed="1"/>
        </object>
        <object class="WED_AirportNode" id="1557" parent_id="1551">
            <sources/>
            <viewers/>
            <children/>
            <hierarchy hidden="0" locked="0" name="Node 2"/>
            <point ctrl_latitude_hi="0.000000000" ctrl_latitude_lo="0.000000000" ctrl_longitude_hi="0.000000000" ctrl_longitude_lo="0.000000000" latitude="50.085653770" longitude="20.197775558" split="0"/>
            <markings/>
        </object>
        <object class="WED_AirportNode" id="14" parent_id="13">
            <sources/>
            <viewers/>
            <children/>
            <hierarchy hidden="0" locked="0" name="unnamed entity"/>
            <point ctrl_latitude_hi="0.000000000" ctrl_latitude_lo="0.000000000" ctrl_longitude_hi="0.000000000" ctrl_longitude_lo="0.000000000" latitude="50.086873079" longitude="20.194681951" split="0"/>
            <markings/>
        </object>
        <object class="WED_AirportNode" id="1558" parent_id="1551">
            <sources/>
            <viewers/>
            <children/>
            <hierarchy hidden="0" locked="0" name="Node 2"/>
            <point ctrl_latitude_hi="0.000000000" ctrl_latitude_lo="0.000000000" ctrl_longitude_hi="0.000000000" ctrl_longitude_lo="0.000000000" latitude="50.085653770" longitude="20.197775558" split="0"/>
            <markings/>
        </object>
        <object class="WED_AirportNode" id="15" parent_id="13">
            <sources/>
            <viewers/>
            <children/>
            <hierarchy hidden="0" locked="0" name="unnamed entity"/>
            <point ctrl_latitude_hi="0.000000000" ctrl_latitude_lo="0.000000000" ctrl_longitude_hi="0.000000000" ctrl_longitude_lo="0.000000000" latitude="50.086869733" longitude="20.194738572" split="0"/>
            <markings/>
        </object>
        <object class="WED_AirportNode" id="1559" parent_id="1551">
            <sources/>
            <viewers/>
            <children/>
            <hierarchy hidden="0" locked="0" name="Node 2"/>
            <point ctrl_latitude_hi="0.000000000" ctrl_latitude_lo="0.000000000" ctrl_longitude_hi="0.000000000" ctrl_longitude_lo="0.000000000" latitude="50.085653770" longitude="20.197775558" split="0"/>
            <markings/>
        </object>
        <object class="WED_AirportNode" id="16" parent_id="13">
            <sources/>
            <viewers/>
            <children/>
            <hierarchy hidden="0" locked="0" name="unnamed entity"/>
            <point ctrl_latitude_hi="0.000000000" ctrl_latitude_lo="0.000000000" ctrl_longitude_hi="0.000000000" ctrl_longitude_lo="0.000000000" latitude="50.086978283" longitude="20.194753536" split="0"/>
            <markings/>
        </object>
        <object class="WED_AirportNode" id="1560" parent_id="1551">
            <sources/>
            <viewers/>
            <children/>
            <hierarchy hidden="0" locked="0" name="Node 3"/>
            <point ctrl_latitude_hi="0.000000000" ctrl_latitude_lo="0.000000000" ctrl_longitude_hi="0.000000000" ctrl_longitude_lo="0.000000000" latitude="50.085672798" longitude="20.197778254" split="0"/>
            <markings/>
        </object>
        <object class="WED_AirportNode" id="17" parent_id="13">
            <sources/>
            <viewers/>
            <children/>
            <hierarchy hidden="0" locked="0" name="unnamed entity"/>
            <point ctrl_latitude_hi="0.000000000" ctrl_latitude_lo="0.000000000" ctrl_longitude_hi="0.000000000" ctrl_longitude_lo="0.000000000" latitude="50.086978983" longitude="20.194692364" split="0"/>
            <markings/>
        </object>
        <object class="WED_AirportNode" id="1561" parent_id="1551">
            <sources/>
            <viewers/>
            <children/>
            <hierarchy hidden="0" locked="0" name="Node 3"/>
            <point ctrl_latitude_hi="0.000000000" ctrl_latitude_lo="0.000000000" ctrl_longitude_hi="0.000000000" ctrl_longitude_lo="0.000000000" latitude="50.085672798" longitude="20.197778254" split="0"/>
            <markings/>
        </object>
        <object class="WED_Taxiway" id="18" parent_id="1807">
            <sources/>
            <viewers/>
            <children>
                <child id="19"/>
            </children>
            <hierarchy hidden="0" locked="0" name="marker R"/>
            <taxiway heading="0.00" roughness="0.10" surface="Concrete"/>
        </object>
        <object class="WED_AirportNode" id="1562" parent_id="1551">
            <sources/>
            <viewers/>
            <children/>
            <hierarchy hidden="0" locked="0" name="Node 3"/>
            <point ctrl_latitude_hi="0.000000000" ctrl_latitude_lo="0.000000000" ctrl_longitude_hi="0.000000000" ctrl_longitude_lo="0.000000000" latitude="50.085672798" longitude="20.197778254" split="0"/>
            <markings/>
        </object>
        <object class="WED_AirportChain" id="19" parent_id="18">
            <sources/>
            <viewers/>
            <children>
                <child id="20"/>
                <child id="21"/>
                <child id="22"/>
                <child id="23"/>
            </children>
            <hierarchy hidden="0" locked="0" name="unnamed entity"/>
            <airport_chain closed="1"/>
        </object>
        <object class="WED_AirportNode" id="1563" parent_id="1551">
            <sources/>
            <viewers/>
            <children/>
            <hierarchy hidden="0" locked="0" name="Node 3"/>
            <point ctrl_latitude_hi="0.000000000" ctrl_latitude_lo="0.000000000" ctrl_longitude_hi="0.000000000" ctrl_longitude_lo="0.000000000" latitude="50.085672798" longitude="20.197778254" split="0"/>
            <markings/>
        </object>
        <object class="WED_AirportNode" id="20" parent_id="19">
            <sources/>
            <viewers/>
            <children/>
            <hierarchy hidden="0" locked="0" name="unnamed entity"/>
            <point ctrl_latitude_hi="0.000000000" ctrl_latitude_lo="0.000000000" ctrl_longitude_hi="0.000000000" ctrl_longitude_lo="0.000000000" latitude="50.086516458" longitude="20.194637428" split="0"/>
            <markings/>
        </object>
        <object class="WED_AirportNode" id="1564" parent_id="1551">
            <sources/>
            <viewers/>
            <children/>
            <hierarchy hidden="0" locked="0" name="Node 4"/>
            <point ctrl_latitude_hi="0.000000000" ctrl_latitude_lo="0.000000000" ctrl_longitude_hi="0.000000000" ctrl_longitude_lo="0.000000000" latitude="50.085672798" longitude="20.197735119" split="0"/>
            <markings/>
        </object>
        <object class="WED_AirportNode" id="21" parent_id="19">
            <sources/>
            <viewers/>
            <children/>
            <hierarchy hidden="0" locked="0" name="unnamed entity"/>
            <point ctrl_latitude_hi="0.000000000" ctrl_latitude_lo="0.000000000" ctrl_longitude_hi="0.000000000" ctrl_longitude_lo="0.000000000" latitude="50.086514095" longitude="20.194694050" split="0"/>
            <markings/>
        </object>
        <object class="WED_AirportNode" id="1565" parent_id="1551">
            <sources/>
            <viewers/>
            <children/>
            <hierarchy hidden="0" locked="0" name="Node 4"/>
            <point ctrl_latitude_hi="0.000000000" ctrl_latitude_lo="0.000000000" ctrl_longitude_hi="0.000000000" ctrl_longitude_lo="0.000000000" latitude="50.085672798" longitude="20.197735119" split="0"/>
            <markings/>
        </object>
        <object class="WED_AirportNode" id="22" parent_id="19">
            <sources/>
            <viewers/>
            <children/>
            <hierarchy hidden="0" locked="0" name="unnamed entity"/>
            <point ctrl_latitude_hi="0.000000000" ctrl_latitude_lo="0.000000000" ctrl_longitude_hi="0.000000000" ctrl_longitude_lo="0.000000000" latitude="50.086623618" longitude="20.194704473" split="0"/>
            <markings/>
        </object>
        <object class="WED_AirportNode" id="1566" parent_id="1551">
            <sources/>
            <viewers/>
            <children/>
            <hierarchy hidden="0" locked="0" name="Node 4"/>
            <point ctrl_latitude_hi="0.000000000" ctrl_latitude_lo="0.000000000" ctrl_longitude_hi="0.000000000" ctrl_longitude_lo="0.000000000" latitude="50.085672798" longitude="20.197735119" split="0"/>
            <markings/>
        </object>
        <object class="WED_AirportNode" id="23" parent_id="19">
            <sources/>
            <viewers/>
            <children/>
            <hierarchy hidden="0" locked="0" name="unnamed entity"/>
            <point ctrl_latitude_hi="0.000000000" ctrl_latitude_lo="0.000000000" ctrl_longitude_hi="0.000000000" ctrl_longitude_lo="0.000000000" latitude="50.086625292" longitude="20.194644807" split="0"/>
            <markings/>
        </object>
        <object class="WED_AirportNode" id="1567" parent_id="1551">
            <sources/>
            <viewers/>
            <children/>
            <hierarchy hidden="0" locked="0" name="Node 4"/>
            <point ctrl_latitude_hi="0.000000000" ctrl_latitude_lo="0.000000000" ctrl_longitude_hi="0.000000000" ctrl_longitude_lo="0.000000000" latitude="50.085672798" longitude="20.197735119" split="0"/>
            <markings/>
        </object>
        <object class="WED_Taxiway" id="24" parent_id="1807">
            <sources/>
            <viewers/>
            <children>
                <child id="25"/>
            </children>
            <hierarchy hidden="0" locked="0" name="marker PAPI R"/>
            <taxiway heading="0.00" roughness="0.10" surface="Concrete"/>
        </object>
        <object class="WED_AirportChain" id="1568" parent_id="1533">
            <sources/>
            <viewers/>
            <children>
                <child id="1569"/>
                <child id="1570"/>
                <child id="1571"/>
                <child id="1572"/>
                <child id="1573"/>
                <child id="1574"/>
                <child id="1575"/>
                <child id="1576"/>
                <child id="1577"/>
                <child id="1578"/>
                <child id="1579"/>
                <child id="1580"/>
                <child id="1581"/>
                <child id="1582"/>
                <child id="1583"/>
                <child id="1584"/>
            </children>
            <hierarchy hidden="0" locked="0" name="Taxiway 1 Outer Ring"/>
            <airport_chain closed="1"/>
        </object>
        <object class="WED_AirportChain" id="25" parent_id="24">
            <sources/>
            <viewers/>
            <children>
                <child id="26"/>
                <child id="27"/>
                <child id="28"/>
                <child id="29"/>
            </children>
            <hierarchy hidden="0" locked="0" name="unnamed entity"/>
            <airport_chain closed="1"/>
        </object>
        <object class="WED_AirportNode" id="1569" parent_id="1568">
            <sources/>
            <viewers/>
            <children/>
            <hierarchy hidden="0" locked="0" name="Node 1"/>
            <point ctrl_latitude_hi="0.000000000" ctrl_latitude_lo="0.000000000" ctrl_longitude_hi="0.000000000" ctrl_longitude_lo="0.000000000" latitude="50.086322042" longitude="20.198780121" split="0"/>
            <markings/>
        </object>
        <object class="WED_AirportNode" id="26" parent_id="25">
            <sources/>
            <viewers/>
            <children/>
            <hierarchy hidden="0" locked="0" name="unnamed entity"/>
            <point ctrl_latitude_hi="0.000000000" ctrl_latitude_lo="0.000000000" ctrl_longitude_hi="0.000000000" ctrl_longitude_lo="0.000000000" latitude="50.086340586" longitude="20.196680769" split="0"/>
            <markings/>
        </object>
        <object class="WED_AirportNode" id="1570" parent_id="1568">
            <sources/>
            <viewers/>
            <children/>
            <hierarchy hidden="0" locked="0" name="Node 1"/>
            <point ctrl_latitude_hi="0.000000000" ctrl_latitude_lo="0.000000000" ctrl_longitude_hi="0.000000000" ctrl_longitude_lo="0.000000000" latitude="50.086322042" longitude="20.198780121" split="0"/>
            <markings/>
        </object>
        <object class="WED_AirportNode" id="27" parent_id="25">
            <sources/>
            <viewers/>
            <children/>
            <hierarchy hidden="0" locked="0" name="unnamed entity"/>
            <point ctrl_latitude_hi="0.000000000" ctrl_latitude_lo="0.000000000" ctrl_longitude_hi="0.000000000" ctrl_longitude_lo="0.000000000" latitude="50.086333356" longitude="20.196754079" split="0"/>
            <markings/>
        </object>
        <object class="WED_AirportNode" id="1571" parent_id="1568">
            <sources/>
            <viewers/>
            <children/>
            <hierarchy hidden="0" locked="0" name="Node 1"/>
            <point ctrl_latitude_hi="0.000000000" ctrl_latitude_lo="0.000000000" ctrl_longitude_hi="0.000000000" ctrl_longitude_lo="0.000000000" latitude="50.086322042" longitude="20.198780121" split="0"/>
            <markings/>
        </object>
        <object class="WED_AirportNode" id="28" parent_id="25">
            <sources/>
            <viewers/>
            <children/>
            <hierarchy hidden="0" locked="0" name="unnamed entity"/>
            <point ctrl_latitude_hi="0.000000000" ctrl_latitude_lo="0.000000000" ctrl_longitude_hi="0.000000000" ctrl_longitude_lo="0.000000000" latitude="50.086441906" longitude="20.196776639" split="0"/>
            <markings/>
        </object>
        <object class="WED_AirportNode" id="1572" parent_id="1568">
            <sources/>
            <viewers/>
            <children/>
            <hierarchy hidden="0" locked="0" name="Node 1"/>
            <point ctrl_latitude_hi="0.000000000" ctrl_latitude_lo="0.000000000" ctrl_longitude_hi="0.000000000" ctrl_longitude_lo="0.000000000" latitude="50.086322042" longitude="20.198780121" split="0"/>
            <markings/>
        </object>
        <object class="WED_AirportNode" id="29" parent_id="25">
            <sources/>
            <viewers/>
            <children/>
            <hierarchy hidden="0" locked="0" name="unnamed entity"/>
            <point ctrl_latitude_hi="0.000000000" ctrl_latitude_lo="0.000000000" ctrl_longitude_hi="0.000000000" ctrl_longitude_lo="0.000000000" latitude="50.086445526" longitude="20.196703329" split="0"/>
            <markings/>
        </object>
        <object class="WED_AirportNode" id="1573" parent_id="1568">
            <sources/>
            <viewers/>
            <children/>
            <hierarchy hidden="0" locked="0" name="Node 2"/>
            <point ctrl_latitude_hi="0.000000000" ctrl_latitude_lo="0.000000000" ctrl_longitude_hi="0.000000000" ctrl_longitude_lo="0.000000000" latitude="50.086321046" longitude="20.198822028" split="0"/>
            <markings/>
        </object>
        <object class="WED_Taxiway" id="30" parent_id="1807">
            <sources/>
            <viewers/>
            <children>
                <child id="31"/>
            </children>
            <hierarchy hidden="0" locked="0" name="marker PAPI L"/>
            <taxiway heading="0.00" roughness="0.10" surface="Concrete"/>
        </object>
        <object class="WED_AirportNode" id="1574" parent_id="1568">
            <sources/>
            <viewers/>
            <children/>
            <hierarchy hidden="0" locked="0" name="Node 2"/>
            <point ctrl_latitude_hi="0.000000000" ctrl_latitude_lo="0.000000000" ctrl_longitude_hi="0.000000000" ctrl_longitude_lo="0.000000000" latitude="50.086321046" longitude="20.198822028" split="0"/>
            <markings/>
        </object>
        <object class="WED_AirportChain" id="31" parent_id="30">
            <sources/>
            <viewers/>
            <children>
                <child id="32"/>
                <child id="33"/>
                <child id="34"/>
                <child id="35"/>
            </children>
            <hierarchy hidden="0" locked="0" name="unnamed entity"/>
            <airport_chain closed="1"/>
        </object>
        <object class="WED_AirportNode" id="1575" parent_id="1568">
            <sources/>
            <viewers/>
            <children/>
            <hierarchy hidden="0" locked="0" name="Node 2"/>
            <point ctrl_latitude_hi="0.000000000" ctrl_latitude_lo="0.000000000" ctrl_longitude_hi="0.000000000" ctrl_longitude_lo="0.000000000" latitude="50.086321046" longitude="20.198822028" split="0"/>
            <markings/>
        </object>
        <object class="WED_AirportNode" id="32" parent_id="31">
            <sources/>
            <viewers/>
            <children/>
            <hierarchy hidden="0" locked="0" name="unnamed entity"/>
            <point ctrl_latitude_hi="0.000000000" ctrl_latitude_lo="0.000000000" ctrl_longitude_hi="0.000000000" ctrl_longitude_lo="0.000000000" latitude="50.086859660" longitude="20.196746829" split="0"/>
            <markings/>
        </object>
        <object class="WED_AirportNode" id="1576" parent_id="1568">
            <sources/>
            <viewers/>
            <children/>
            <hierarchy hidden="0" locked="0" name="Node 2"/>
            <point ctrl_latitude_hi="0.000000000" ctrl_latitude_lo="0.000000000" ctrl_longitude_hi="0.000000000" ctrl_longitude_lo="0.000000000" latitude="50.086321046" longitude="20.198822028" split="0"/>
            <markings/>
        </object>
        <object class="WED_AirportNode" id="33" parent_id="31">
            <sources/>
            <viewers/>
            <children/>
            <hierarchy hidden="0" locked="0" name="unnamed entity"/>
            <point ctrl_latitude_hi="0.000000000" ctrl_latitude_lo="0.000000000" ctrl_longitude_hi="0.000000000" ctrl_longitude_lo="0.000000000" latitude="50.086852420" longitude="20.196820139" split="0"/>
            <markings/>
        </object>
        <object class="WED_AirportNode" id="1577" parent_id="1568">
            <sources/>
            <viewers/>
            <children/>
            <hierarchy hidden="0" locked="0" name="Node 3"/>
            <point ctrl_latitude_hi="0.000000000" ctrl_latitude_lo="0.000000000" ctrl_longitude_hi="0.000000000" ctrl_longitude_lo="0.000000000" latitude="50.086340074" longitude="20.198824724" split="0"/>
            <markings/>
        </object>
        <object class="WED_AirportNode" id="34" parent_id="31">
            <sources/>
            <viewers/>
            <children/>
            <hierarchy hidden="0" locked="0" name="unnamed entity"/>
            <point ctrl_latitude_hi="0.000000000" ctrl_latitude_lo="0.000000000" ctrl_longitude_hi="0.000000000" ctrl_longitude_lo="0.000000000" latitude="50.086960970" longitude="20.196842699" split="0"/>
            <markings/>
        </object>
        <object class="WED_AirportNode" id="1578" parent_id="1568">
            <sources/>
            <viewers/>
            <children/>
            <hierarchy hidden="0" locked="0" name="Node 3"/>
            <point ctrl_latitude_hi="0.000000000" ctrl_latitude_lo="0.000000000" ctrl_longitude_hi="0.000000000" ctrl_longitude_lo="0.000000000" latitude="50.086340074" longitude="20.198824724" split="0"/>
            <markings/>
        </object>
        <object class="WED_AirportNode" id="35" parent_id="31">
            <sources/>
            <viewers/>
            <children/>
            <hierarchy hidden="0" locked="0" name="unnamed entity"/>
            <point ctrl_latitude_hi="0.000000000" ctrl_latitude_lo="0.000000000" ctrl_longitude_hi="0.000000000" ctrl_longitude_lo="0.000000000" latitude="50.086964590" longitude="20.196769389" split="0"/>
            <markings/>
        </object>
        <object class="WED_AirportNode" id="1579" parent_id="1568">
            <sources/>
            <viewers/>
            <children/>
            <hierarchy hidden="0" locked="0" name="Node 3"/>
            <point ctrl_latitude_hi="0.000000000" ctrl_latitude_lo="0.000000000" ctrl_longitude_hi="0.000000000" ctrl_longitude_lo="0.000000000" latitude="50.086340074" longitude="20.198824724" split="0"/>
            <markings/>
        </object>
        <object class="WED_Taxiway" id="36" parent_id="1807">
            <sources/>
            <viewers/>
            <children>
                <child id="37"/>
            </children>
            <hierarchy hidden="0" locked="0" name="marker R"/>
            <taxiway heading="0.00" roughness="0.10" surface="Concrete"/>
        </object>
        <object class="WED_AirportNode" id="1580" parent_id="1568">
            <sources/>
            <viewers/>
            <children/>
            <hierarchy hidden="0" locked="0" name="Node 3"/>
            <point ctrl_latitude_hi="0.000000000" ctrl_latitude_lo="0.000000000" ctrl_longitude_hi="0.000000000" ctrl_longitude_lo="0.000000000" latitude="50.086340074" longitude="20.198824724" split="0"/>
            <markings/>
        </object>
        <object class="WED_AirportChain" id="37" parent_id="36">
            <sources/>
            <viewers/>
            <children>
                <child id="38"/>
                <child id="39"/>
                <child id="40"/>
                <child id="41"/>
            </children>
            <hierarchy hidden="0" locked="0" name="unnamed entity"/>
            <airport_chain closed="1"/>
        </object>
        <object class="WED_AirportNode" id="1581" parent_id="1568">
            <sources/>
            <viewers/>
            <children/>
            <hierarchy hidden="0" locked="0" name="Node 4"/>
            <point ctrl_latitude_hi="0.000000000" ctrl_latitude_lo="0.000000000" ctrl_longitude_hi="0.000000000" ctrl_longitude_lo="0.000000000" latitude="50.086340074" longitude="20.198781589" split="0"/>
            <markings/>
        </object>
        <object class="WED_AirportNode" id="38" parent_id="37">
            <sources/>
            <viewers/>
            <children/>
            <hierarchy hidden="0" locked="0" name="unnamed entity"/>
            <point ctrl_latitude_hi="0.000000000" ctrl_latitude_lo="0.000000000" ctrl_longitude_hi="0.000000000" ctrl_longitude_lo="0.000000000" latitude="50.086148900" longitude="20.209789813" split="0"/>
            <markings/>
        </object>
        <object class="WED_AirportNode" id="1582" parent_id="1568">
            <sources/>
            <viewers/>
            <children/>
            <hierarchy hidden="0" locked="0" name="Node 4"/>
            <point ctrl_latitude_hi="0.000000000" ctrl_latitude_lo="0.000000000" ctrl_longitude_hi="0.000000000" ctrl_longitude_lo="0.000000000" latitude="50.086340074" longitude="20.198781589" split="0"/>
            <markings/>
        </object>
        <object class="WED_AirportNode" id="39" parent_id="37">
            <sources/>
            <viewers/>
            <children/>
            <hierarchy hidden="0" locked="0" name="unnamed entity"/>
            <point ctrl_latitude_hi="0.000000000" ctrl_latitude_lo="0.000000000" ctrl_longitude_hi="0.000000000" ctrl_longitude_lo="0.000000000" latitude="50.086145610" longitude="20.209851333" split="0"/>
            <markings/>
        </object>
        <object class="WED_AirportNode" id="1583" parent_id="1568">
            <sources/>
            <viewers/>
            <children/>
            <hierarchy hidden="0" locked="0" name="Node 4"/>
            <point ctrl_latitude_hi="0.000000000" ctrl_latitude_lo="0.000000000" ctrl_longitude_hi="0.000000000" ctrl_longitude_lo="0.000000000" latitude="50.086340074" longitude="20.198781589" split="0"/>
            <markings/>
        </object>
        <object class="WED_AirportNode" id="40" parent_id="37">
            <sources/>
            <viewers/>
            <children/>
            <hierarchy hidden="0" locked="0" name="unnamed entity"/>
            <point ctrl_latitude_hi="0.000000000" ctrl_latitude_lo="0.000000000" ctrl_longitude_hi="0.000000000" ctrl_longitude_lo="0.000000000" latitude="50.086260740" longitude="20.209866713" split="0"/>
            <markings/>
        </object>
        <object class="WED_AirportNode" id="1584" parent_id="1568">
            <sources/>
            <viewers/>
            <children/>
            <hierarchy hidden="0" locked="0" name="Node 4"/>
            <point ctrl_latitude_hi="0.000000000" ctrl_latitude_lo="0.000000000" ctrl_longitude_hi="0.000000000" ctrl_longitude_lo="0.000000000" latitude="50.086340074" longitude="20.198781589" split="0"/>
            <markings/>
        </object>
        <object class="WED_AirportNode" id="41" parent_id="37">
            <sources/>
            <viewers/>
            <children/>
            <hierarchy hidden="0" locked="0" name="unnamed entity"/>
            <point ctrl_latitude_hi="0.000000000" ctrl_latitude_lo="0.000000000" ctrl_longitude_hi="0.000000000" ctrl_longitude_lo="0.000000000" latitude="50.086260740" longitude="20.209805193" split="0"/>
            <markings/>
        </object>
        <object class="WED_AirportChain" id="1585" parent_id="1533">
            <sources/>
            <viewers/>
            <children>
                <child id="1586"/>
                <child id="1587"/>
                <child id="1588"/>
                <child id="1589"/>
                <child id="1590"/>
                <child id="1591"/>
                <child id="1592"/>
                <child id="1593"/>
                <child id="1594"/>
                <child id="1595"/>
                <child id="1596"/>
                <child id="1597"/>
                <child id="1598"/>
                <child id="1599"/>
                <child id="1600"/>
                <child id="1601"/>
            </children>
            <hierarchy hidden="0" locked="0" name="Taxiway 1 Outer Ring"/>
            <airport_chain closed="1"/>
        </object>
        <object class="WED_Taxiway" id="42" parent_id="1807">
            <sources/>
            <viewers/>
            <children>
                <child id="43"/>
            </children>
            <hierarchy hidden="0" locked="0" name="marker L"/>
            <taxiway heading="0.00" roughness="0.10" surface="Concrete"/>
        </object>
        <object class="WED_AirportNode" id="1586" parent_id="1585">
            <sources/>
            <viewers/>
            <children/>
            <hierarchy hidden="0" locked="0" name="Node 1"/>
            <point ctrl_latitude_hi="0.000000000" ctrl_latitude_lo="0.000000000" ctrl_longitude_hi="0.000000000" ctrl_longitude_lo="0.000000000" latitude="50.086257331" longitude="20.200152224" split="0"/>
            <markings/>
        </object>
        <object class="WED_AirportChain" id="43" parent_id="42">
            <sources/>
            <viewers/>
            <children>
                <child id="44"/>
                <child id="45"/>
                <child id="46"/>
                <child id="47"/>
            </children>
            <hierarchy hidden="0" locked="0" name="unnamed entity"/>
            <airport_chain closed="1"/>
        </object>
        <object class="WED_AirportNode" id="1587" parent_id="1585">
            <sources/>
            <viewers/>
            <children/>
            <hierarchy hidden="0" locked="0" name="Node 1"/>
            <point ctrl_latitude_hi="0.000000000" ctrl_latitude_lo="0.000000000" ctrl_longitude_hi="0.000000000" ctrl_longitude_lo="0.000000000" latitude="50.086257331" longitude="20.200152224" split="0"/>
            <markings/>
        </object>
        <object class="WED_AirportNode" id="44" parent_id="43">
            <sources/>
            <viewers/>
            <children/>
            <hierarchy hidden="0" locked="0" name="unnamed entity"/>
            <point ctrl_latitude_hi="0.000000000" ctrl_latitude_lo="0.000000000" ctrl_longitude_hi="0.000000000" ctrl_longitude_lo="0.000000000" latitude="50.085793280" longitude="20.209762199" split="0"/>
            <markings/>
        </object>
        <object class="WED_AirportNode" id="1588" parent_id="1585">
            <sources/>
            <viewers/>
            <children/>
            <hierarchy hidden="0" locked="0" name="Node 1"/>
            <point ctrl_latitude_hi="0.000000000" ctrl_latitude_lo="0.000000000" ctrl_longitude_hi="0.000000000" ctrl_longitude_lo="0.000000000" latitude="50.086257331" longitude="20.200152224" split="0"/>
            <markings/>
        </object>
        <object class="WED_AirportNode" id="45" parent_id="43">
            <sources/>
            <viewers/>
            <children/>
            <hierarchy hidden="0" locked="0" name="unnamed entity"/>
            <point ctrl_latitude_hi="0.000000000" ctrl_latitude_lo="0.000000000" ctrl_longitude_hi="0.000000000" ctrl_longitude_lo="0.000000000" latitude="50.085789990" longitude="20.209823719" split="0"/>
            <markings/>
        </object>
        <object class="WED_AirportNode" id="1589" parent_id="1585">
            <sources/>
            <viewers/>
            <children/>
            <hierarchy hidden="0" locked="0" name="Node 1"/>
            <point ctrl_latitude_hi="0.000000000" ctrl_latitude_lo="0.000000000" ctrl_longitude_hi="0.000000000" ctrl_longitude_lo="0.000000000" latitude="50.086257331" longitude="20.200152224" split="0"/>
            <markings/>
        </object>
        <object class="WED_AirportNode" id="46" parent_id="43">
            <sources/>
            <viewers/>
            <children/>
            <hierarchy hidden="0" locked="0" name="unnamed entity"/>
            <point ctrl_latitude_hi="0.000000000" ctrl_latitude_lo="0.000000000" ctrl_longitude_hi="0.000000000" ctrl_longitude_lo="0.000000000" latitude="50.085905130" longitude="20.209839099" split="0"/>
            <markings/>
        </object>
        <object class="WED_AirportNode" id="1590" parent_id="1585">
            <sources/>
            <viewers/>
            <children/>
            <hierarchy hidden="0" locked="0" name="Node 2"/>
            <point ctrl_latitude_hi="0.000000000" ctrl_latitude_lo="0.000000000" ctrl_longitude_hi="0.000000000" ctrl_longitude_lo="0.000000000" latitude="50.086256334" longitude="20.200194131" split="0"/>
            <markings/>
        </object>
        <object class="WED_AirportNode" id="47" parent_id="43">
            <sources/>
            <viewers/>
            <children/>
            <hierarchy hidden="0" locked="0" name="unnamed entity"/>
            <point ctrl_latitude_hi="0.000000000" ctrl_latitude_lo="0.000000000" ctrl_longitude_hi="0.000000000" ctrl_longitude_lo="0.000000000" latitude="50.085905130" longitude="20.209777579" split="0"/>
            <markings/>
        </object>
        <object class="WED_AirportNode" id="1591" parent_id="1585">
            <sources/>
            <viewers/>
            <children/>
            <hierarchy hidden="0" locked="0" name="Node 2"/>
            <point ctrl_latitude_hi="0.000000000" ctrl_latitude_lo="0.000000000" ctrl_longitude_hi="0.000000000" ctrl_longitude_lo="0.000000000" latitude="50.086256334" longitude="20.200194131" split="0"/>
            <markings/>
        </object>
        <object class="WED_Taxiway" id="48" parent_id="1807">
            <sources/>
            <viewers/>
            <children>
                <child id="49"/>
            </children>
            <hierarchy hidden="0" locked="0" name="marker PAPI L"/>
            <taxiway heading="0.00" roughness="0.10" surface="Concrete"/>
        </object>
        <object class="WED_AirportNode" id="1592" parent_id="1585">
            <sources/>
            <viewers/>
            <children/>
            <hierarchy hidden="0" locked="0" name="Node 2"/>
            <point ctrl_latitude_hi="0.000000000" ctrl_latitude_lo="0.000000000" ctrl_longitude_hi="0.000000000" ctrl_longitude_lo="0.000000000" latitude="50.086256334" longitude="20.200194131" split="0"/>
            <markings/>
        </object>
        <object class="WED_AirportChain" id="49" parent_id="48">
            <sources/>
            <viewers/>
            <children>
                <child id="50"/>
                <child id="51"/>
                <child id="52"/>
                <child id="53"/>
            </children>
            <hierarchy hidden="0" locked="0" name="unnamed entity"/>
            <airport_chain closed="1"/>
        </object>
        <object class="WED_AirportNode" id="1593" parent_id="1585">
            <sources/>
            <viewers/>
            <children/>
            <hierarchy hidden="0" locked="0" name="Node 2"/>
            <point ctrl_latitude_hi="0.000000000" ctrl_latitude_lo="0.000000000" ctrl_longitude_hi="0.000000000" ctrl_longitude_lo="0.000000000" latitude="50.086256334" longitude="20.200194131" split="0"/>
            <markings/>
        </object>
        <object class="WED_AirportNode" id="50" parent_id="49">
            <sources/>
            <viewers/>
            <children/>
            <hierarchy hidden="0" locked="0" name="unnamed entity"/>
            <point ctrl_latitude_hi="0.000000000" ctrl_latitude_lo="0.000000000" ctrl_longitude_hi="0.000000000" ctrl_longitude_lo="0.000000000" latitude="50.085798845" longitude="20.207692431" split="0"/>
            <markings/>
        </object>
        <object class="WED_AirportNode" id="1594" parent_id="1585">
            <sources/>
            <viewers/>
            <children/>
            <hierarchy hidden="0" locked="0" name="Node 3"/>
            <point ctrl_latitude_hi="0.000000000" ctrl_latitude_lo="0.000000000" ctrl_longitude_hi="0.000000000" ctrl_longitude_lo="0.000000000" latitude="50.086275363" longitude="20.200196827" split="0"/>
            <markings/>
        </object>
        <object class="WED_AirportNode" id="51" parent_id="49">
            <sources/>
            <viewers/>
            <children/>
            <hierarchy hidden="0" locked="0" name="unnamed entity"/>
            <point ctrl_latitude_hi="0.000000000" ctrl_latitude_lo="0.000000000" ctrl_longitude_hi="0.000000000" ctrl_longitude_lo="0.000000000" latitude="50.085796929" longitude="20.207771077" split="0"/>
            <markings/>
        </object>
        <object class="WED_AirportNode" id="1595" parent_id="1585">
            <sources/>
            <viewers/>
            <children/>
            <hierarchy hidden="0" locked="0" name="Node 3"/>
            <point ctrl_latitude_hi="0.000000000" ctrl_latitude_lo="0.000000000" ctrl_longitude_hi="0.000000000" ctrl_longitude_lo="0.000000000" latitude="50.086275363" longitude="20.200196827" split="0"/>
            <markings/>
        </object>
        <object class="WED_AirportNode" id="52" parent_id="49">
            <sources/>
            <viewers/>
            <children/>
            <hierarchy hidden="0" locked="0" name="unnamed entity"/>
            <point ctrl_latitude_hi="0.000000000" ctrl_latitude_lo="0.000000000" ctrl_longitude_hi="0.000000000" ctrl_longitude_lo="0.000000000" latitude="50.085912059" longitude="20.207769331" split="0"/>
            <markings/>
        </object>
        <object class="WED_AirportNode" id="1596" parent_id="1585">
            <sources/>
            <viewers/>
            <children/>
            <hierarchy hidden="0" locked="0" name="Node 3"/>
            <point ctrl_latitude_hi="0.000000000" ctrl_latitude_lo="0.000000000" ctrl_longitude_hi="0.000000000" ctrl_longitude_lo="0.000000000" latitude="50.086275363" longitude="20.200196827" split="0"/>
            <markings/>
        </object>
        <object class="WED_AirportNode" id="53" parent_id="49">
            <sources/>
            <viewers/>
            <children/>
            <hierarchy hidden="0" locked="0" name="unnamed entity"/>
            <point ctrl_latitude_hi="0.000000000" ctrl_latitude_lo="0.000000000" ctrl_longitude_hi="0.000000000" ctrl_longitude_lo="0.000000000" latitude="50.085914806" longitude="20.207690686" split="0"/>
            <markings/>
        </object>
        <object class="WED_AirportNode" id="1597" parent_id="1585">
            <sources/>
            <viewers/>
            <children/>
            <hierarchy hidden="0" locked="0" name="Node 3"/>
            <point ctrl_latitude_hi="0.000000000" ctrl_latitude_lo="0.000000000" ctrl_longitude_hi="0.000000000" ctrl_longitude_lo="0.000000000" latitude="50.086275363" longitude="20.200196827" split="0"/>
            <markings/>
        </object>
        <object class="WED_Taxiway" id="54" parent_id="1807">
            <sources/>
            <viewers/>
            <children>
                <child id="55"/>
            </children>
            <hierarchy hidden="0" locked="0" name="marker PAPI R"/>
            <taxiway heading="0.00" roughness="0.10" surface="Concrete"/>
        </object>
        <object class="WED_AirportNode" id="1598" parent_id="1585">
            <sources/>
            <viewers/>
            <children/>
            <hierarchy hidden="0" locked="0" name="Node 4"/>
            <point ctrl_latitude_hi="0.000000000" ctrl_latitude_lo="0.000000000" ctrl_longitude_hi="0.000000000" ctrl_longitude_lo="0.000000000" latitude="50.086275363" longitude="20.200153692" split="0"/>
            <markings/>
        </object>
        <object class="WED_AirportChain" id="55" parent_id="54">
            <sources/>
            <viewers/>
            <children>
                <child id="56"/>
                <child id="57"/>
                <child id="58"/>
                <child id="59"/>
            </children>
            <hierarchy hidden="0" locked="0" name="unnamed entity"/>
            <airport_chain closed="1"/>
        </object>
        <object class="WED_AirportNode" id="1599" parent_id="1585">
            <sources/>
            <viewers/>
            <children/>
            <hierarchy hidden="0" locked="0" name="Node 4"/>
            <point ctrl_latitude_hi="0.000000000" ctrl_latitude_lo="0.000000000" ctrl_longitude_hi="0.000000000" ctrl_longitude_lo="0.000000000" latitude="50.086275363" longitude="20.200153692" split="0"/>
            <markings/>
        </object>
        <object class="WED_AirportNode" id="56" parent_id="55">
            <sources/>
            <viewers/>
            <children/>
            <hierarchy hidden="0" locked="0" name="unnamed entity"/>
            <point ctrl_latitude_hi="0.000000000" ctrl_latitude_lo="0.000000000" ctrl_longitude_hi="0.000000000" ctrl_longitude_lo="0.000000000" latitude="50.086325962" longitude="20.207756990" split="0"/>
            <markings/>
        </object>
        <object class="WED_AirportNode" id="1600" parent_id="1585">
            <sources/>
            <viewers/>
            <children/>
            <hierarchy hidden="0" locked="0" name="Node 4"/>
            <point ctrl_latitude_hi="0.000000000" ctrl_latitude_lo="0.000000000" ctrl_longitude_hi="0.000000000" ctrl_longitude_lo="0.000000000" latitude="50.086275363" longitude="20.200153692" split="0"/>
            <markings/>
        </object>
        <object class="WED_AirportNode" id="57" parent_id="55">
            <sources/>
            <viewers/>
            <children/>
            <hierarchy hidden="0" locked="0" name="unnamed entity"/>
            <point ctrl_latitude_hi="0.000000000" ctrl_latitude_lo="0.000000000" ctrl_longitude_hi="0.000000000" ctrl_longitude_lo="0.000000000" latitude="50.086326793" longitude="20.207824004" split="0"/>
            <markings/>
        </object>
        <object class="WED_AirportNode" id="1601" parent_id="1585">
            <sources/>
            <viewers/>
            <children/>
            <hierarchy hidden="0" locked="0" name="Node 4"/>
            <point ctrl_latitude_hi="0.000000000" ctrl_latitude_lo="0.000000000" ctrl_longitude_hi="0.000000000" ctrl_longitude_lo="0.000000000" latitude="50.086275363" longitude="20.200153692" split="0"/>
            <markings/>
        </object>
        <object class="WED_AirportNode" id="58" parent_id="55">
            <sources/>
            <viewers/>
            <children/>
            <hierarchy hidden="0" locked="0" name="unnamed entity"/>
            <point ctrl_latitude_hi="0.000000000" ctrl_latitude_lo="0.000000000" ctrl_longitude_hi="0.000000000" ctrl_longitude_lo="0.000000000" latitude="50.086439176" longitude="20.207827214" split="0"/>
            <markings/>
        </object>
        <object class="WED_AirportChain" id="1602" parent_id="1533">
            <sources/>
            <viewers/>
            <children>
                <child id="1603"/>
                <child id="1604"/>
                <child id="1605"/>
                <child id="1606"/>
                <child id="1607"/>
                <child id="1608"/>
                <child id="1609"/>
                <child id="1610"/>
                <child id="1611"/>
                <child id="1612"/>
                <child id="1613"/>
                <child id="1614"/>
                <child id="1615"/>
                <child id="1616"/>
                <child id="1617"/>
                <child id="1618"/>
            </children>
            <hierarchy hidden="0" locked="0" name="Taxiway 1 Outer Ring"/>
            <airport_chain closed="1"/>
        </object>
        <object class="WED_AirportNode" id="59" parent_id="55">
            <sources/>
            <viewers/>
            <children/>
            <hierarchy hidden="0" locked="0" name="unnamed entity"/>
            <point ctrl_latitude_hi="0.000000000" ctrl_latitude_lo="0.000000000" ctrl_longitude_hi="0.000000000" ctrl_longitude_lo="0.000000000" latitude="50.086440549" longitude="20.207762907" split="0"/>
            <markings/>
        </object>
        <object class="WED_AirportNode" id="1603" parent_id="1602">
            <sources/>
            <viewers/>
            <children/>
            <hierarchy hidden="0" locked="0" name="Node 1"/>
            <point ctrl_latitude_hi="0.000000000" ctrl_latitude_lo="0.000000000" ctrl_longitude_hi="0.000000000" ctrl_longitude_lo="0.000000000" latitude="50.086044323" longitude="20.201123424" split="0"/>
            <markings/>
        </object>
        <object class="WED_Taxiway" id="60" parent_id="12">
            <sources/>
            <viewers/>
            <children>
                <child id="61"/>
            </children>
            <hierarchy hidden="0" locked="0" name="taxiway helipad 2"/>
            <taxiway heading="0.00" roughness="0.25" surface="Concrete"/>
        </object>
        <object class="WED_AirportNode" id="1604" parent_id="1602">
            <sources/>
            <viewers/>
            <children/>
            <hierarchy hidden="0" locked="0" name="Node 1"/>
            <point ctrl_latitude_hi="0.000000000" ctrl_latitude_lo="0.000000000" ctrl_longitude_hi="0.000000000" ctrl_longitude_lo="0.000000000" latitude="50.086044323" longitude="20.201123424" split="0"/>
            <markings/>
        </object>
        <object class="WED_AirportChain" id="61" parent_id="60">
            <sources/>
            <viewers/>
            <children>
                <child id="62"/>
                <child id="63"/>
                <child id="64"/>
                <child id="65"/>
                <child id="66"/>
                <child id="67"/>
                <child id="68"/>
                <child id="69"/>
                <child id="70"/>
                <child id="71"/>
                <child id="72"/>
                <child id="73"/>
                <child id="168"/>
                <child id="167"/>
                <child id="169"/>
                <child id="74"/>
                <child id="75"/>
                <child id="76"/>
            </children>
            <hierarchy hidden="0" locked="0" name="unnamed entity"/>
            <airport_chain closed="1"/>
        </object>
        <object class="WED_AirportNode" id="1605" parent_id="1602">
            <sources/>
            <viewers/>
            <children/>
            <hierarchy hidden="0" locked="0" name="Node 1"/>
            <point ctrl_latitude_hi="0.000000000" ctrl_latitude_lo="0.000000000" ctrl_longitude_hi="0.000000000" ctrl_longitude_lo="0.000000000" latitude="50.086044323" longitude="20.201123424" split="0"/>
            <markings/>
        </object>
        <object class="WED_AirportNode" id="62" parent_id="61">
            <sources/>
            <viewers/>
            <children/>
            <hierarchy hidden="0" locked="0" name="unnamed entity"/>
            <point ctrl_latitude_hi="0.000000000" ctrl_latitude_lo="0.000000000" ctrl_longitude_hi="0.000000000" ctrl_longitude_lo="0.000000000" latitude="50.084128318" longitude="20.198881314" split="0"/>
            <markings/>
        </object>
        <object class="WED_AirportNode" id="1606" parent_id="1602">
            <sources/>
            <viewers/>
            <children/>
            <hierarchy hidden="0" locked="0" name="Node 1"/>
            <point ctrl_latitude_hi="0.000000000" ctrl_latitude_lo="0.000000000" ctrl_longitude_hi="0.000000000" ctrl_longitude_lo="0.000000000" latitude="50.086044323" longitude="20.201123424" split="0"/>
            <markings/>
        </object>
        <object class="WED_AirportNode" id="63" parent_id="61">
            <sources/>
            <viewers/>
            <children/>
            <hierarchy hidden="0" locked="0" name="unnamed entity"/>
            <point ctrl_latitude_hi="0.000000749" ctrl_latitude_lo="-0.000005510" ctrl_longitude_hi="0.000179795" ctrl_longitude_lo="-0.000257909" latitude="50.084313169" longitude="20.199053227" split="1"/>
            <markings/>
        </object>
        <object class="WED_AirportNode" id="1607" parent_id="1602">
            <sources/>
            <viewers/>
            <children/>
            <hierarchy hidden="0" locked="0" name="Node 2"/>
            <point ctrl_latitude_hi="0.000000000" ctrl_latitude_lo="0.000000000" ctrl_longitude_hi="0.000000000" ctrl_longitude_lo="0.000000000" latitude="50.086043327" longitude="20.201165331" split="0"/>
            <markings/>
        </object>
        <object class="WED_AirportNode" id="64" parent_id="61">
            <sources/>
            <viewers/>
            <children/>
            <hierarchy hidden="0" locked="0" name="unnamed entity"/>
            <point ctrl_latitude_hi="0.000000000" ctrl_latitude_lo="0.000000000" ctrl_longitude_hi="0.000000000" ctrl_longitude_lo="0.000000000" latitude="50.084281835" longitude="20.199527904" split="0"/>
            <markings/>
        </object>
        <object class="WED_AirportNode" id="1608" parent_id="1602">
            <sources/>
            <viewers/>
            <children/>
            <hierarchy hidden="0" locked="0" name="Node 2"/>
            <point ctrl_latitude_hi="0.000000000" ctrl_latitude_lo="0.000000000" ctrl_longitude_hi="0.000000000" ctrl_longitude_lo="0.000000000" latitude="50.086043327" longitude="20.201165331" split="0"/>
            <markings/>
        </object>
        <object class="WED_AirportNode" id="65" parent_id="61">
            <sources/>
            <viewers/>
            <children/>
            <hierarchy hidden="0" locked="0" name="unnamed entity"/>
            <point ctrl_latitude_hi="-0.000026320" ctrl_latitude_lo="0.000044700" ctrl_longitude_hi="0.000141280" ctrl_longitude_lo="-0.000206300" latitude="50.084206512" longitude="20.200151853" split="1"/>
            <markings/>
        </object>
        <object class="WED_AirportNode" id="1609" parent_id="1602">
            <sources/>
            <viewers/>
            <children/>
            <hierarchy hidden="0" locked="0" name="Node 2"/>
            <point ctrl_latitude_hi="0.000000000" ctrl_latitude_lo="0.000000000" ctrl_longitude_hi="0.000000000" ctrl_longitude_lo="0.000000000" latitude="50.086043327" longitude="20.201165331" split="0"/>
            <markings/>
        </object>
        <object class="WED_AirportNode" id="66" parent_id="61">
            <sources/>
            <viewers/>
            <children/>
            <hierarchy hidden="0" locked="0" name="unnamed entity"/>
            <point ctrl_latitude_hi="-0.000096190" ctrl_latitude_lo="0.000050740" ctrl_longitude_hi="-0.000001030" ctrl_longitude_lo="-0.000014370" latitude="50.084050688" longitude="20.200252304" split="1"/>
            <markings/>
        </object>
        <object class="WED_AirportNode" id="1610" parent_id="1602">
            <sources/>
            <viewers/>
            <children/>
            <hierarchy hidden="0" locked="0" name="Node 2"/>
            <point ctrl_latitude_hi="0.000000000" ctrl_latitude_lo="0.000000000" ctrl_longitude_hi="0.000000000" ctrl_longitude_lo="0.000000000" latitude="50.086043327" longitude="20.201165331" split="0"/>
            <markings/>
        </object>
        <object class="WED_AirportNode" id="67" parent_id="61">
            <sources/>
            <viewers/>
            <children/>
            <hierarchy hidden="0" locked="0" name="unnamed entity"/>
            <point ctrl_latitude_hi="0.000000000" ctrl_latitude_lo="0.000035767" ctrl_longitude_hi="0.000000000" ctrl_longitude_lo="0.000023431" latitude="50.083936627" longitude="20.200235605" split="1"/>
            <markings/>
        </object>
        <object class="WED_AirportNode" id="1611" parent_id="1602">
            <sources/>
            <viewers/>
            <children/>
            <hierarchy hidden="0" locked="0" name="Node 3"/>
            <point ctrl_latitude_hi="0.000000000" ctrl_latitude_lo="0.000000000" ctrl_longitude_hi="0.000000000" ctrl_longitude_lo="0.000000000" latitude="50.086062355" longitude="20.201168027" split="0"/>
            <markings/>
        </object>
        <object class="WED_AirportNode" id="68" parent_id="61">
            <sources/>
            <viewers/>
            <children/>
            <hierarchy hidden="0" locked="0" name="unnamed entity"/>
            <point ctrl_latitude_hi="0.000000000" ctrl_latitude_lo="0.000000000" ctrl_longitude_hi="0.000000000" ctrl_longitude_lo="0.000000000" latitude="50.083934441" longitude="20.200287542" split="0"/>
            <markings/>
        </object>
        <object class="WED_AirportNode" id="1612" parent_id="1602">
            <sources/>
            <viewers/>
            <children/>
            <hierarchy hidden="0" locked="0" name="Node 3"/>
            <point ctrl_latitude_hi="0.000000000" ctrl_latitude_lo="0.000000000" ctrl_longitude_hi="0.000000000" ctrl_longitude_lo="0.000000000" latitude="50.086062355" longitude="20.201168027" split="0"/>
            <markings/>
        </object>
        <object class="WED_AirportNode" id="69" parent_id="61">
            <sources/>
            <viewers/>
            <children/>
            <hierarchy hidden="0" locked="0" name="unnamed entity"/>
            <point ctrl_latitude_hi="0.000000000" ctrl_latitude_lo="0.000000000" ctrl_longitude_hi="0.000000000" ctrl_longitude_lo="0.000000000" latitude="50.084048358" longitude="20.200270544" split="0"/>
            <markings/>
        </object>
        <object class="WED_AirportNode" id="1613" parent_id="1602">
            <sources/>
            <viewers/>
            <children/>
            <hierarchy hidden="0" locked="0" name="Node 3"/>
            <point ctrl_latitude_hi="0.000000000" ctrl_latitude_lo="0.000000000" ctrl_longitude_hi="0.000000000" ctrl_longitude_lo="0.000000000" latitude="50.086062355" longitude="20.201168027" split="0"/>
            <markings/>
        </object>
        <object class="WED_AirportNode" id="70" parent_id="61">
            <sources/>
            <viewers/>
            <children/>
            <hierarchy hidden="0" locked="0" name="unnamed entity"/>
            <point ctrl_latitude_hi="0.000000000" ctrl_latitude_lo="0.000055555" ctrl_longitude_hi="0.000000000" ctrl_longitude_lo="-0.000264223" latitude="50.084142787" longitude="20.200505737" split="1"/>
            <markings/>
        </object>
        <object class="WED_AirportNode" id="1614" parent_id="1602">
            <sources/>
            <viewers/>
            <children/>
            <hierarchy hidden="0" locked="0" name="Node 3"/>
            <point ctrl_latitude_hi="0.000000000" ctrl_latitude_lo="0.000000000" ctrl_longitude_hi="0.000000000" ctrl_longitude_lo="0.000000000" latitude="50.086062355" longitude="20.201168027" split="0"/>
            <markings/>
        </object>
        <object class="WED_AirportNode" id="71" parent_id="61">
            <sources/>
            <viewers/>
            <children/>
            <hierarchy hidden="0" locked="0" name="unnamed entity"/>
            <point ctrl_latitude_hi="-0.000062910" ctrl_latitude_lo="0.000000000" ctrl_longitude_hi="0.000268120" ctrl_longitude_lo="0.000000000" latitude="50.084023907" longitude="20.201077471" split="1"/>
            <markings/>
        </object>
        <object class="WED_AirportNode" id="1615" parent_id="1602">
            <sources/>
            <viewers/>
            <children/>
            <hierarchy hidden="0" locked="0" name="Node 4"/>
            <point ctrl_latitude_hi="0.000000000" ctrl_latitude_lo="0.000000000" ctrl_longitude_hi="0.000000000" ctrl_longitude_lo="0.000000000" latitude="50.086062355" longitude="20.201124892" split="0"/>
            <markings/>
        </object>
        <object class="WED_AirportNode" id="72" parent_id="61">
            <sources/>
            <viewers/>
            <children/>
            <hierarchy hidden="0" locked="0" name="unnamed entity"/>
            <point ctrl_latitude_hi="0.000000000" ctrl_latitude_lo="0.000000000" ctrl_longitude_hi="0.000000000" ctrl_longitude_lo="0.000000000" latitude="50.083943051" longitude="20.201359554" split="0"/>
            <markings/>
        </object>
        <object class="WED_AirportNode" id="1616" parent_id="1602">
            <sources/>
            <viewers/>
            <children/>
            <hierarchy hidden="0" locked="0" name="Node 4"/>
            <point ctrl_latitude_hi="0.000000000" ctrl_latitude_lo="0.000000000" ctrl_longitude_hi="0.000000000" ctrl_longitude_lo="0.000000000" latitude="50.086062355" longitude="20.201124892" split="0"/>
            <markings/>
        </object>
        <object class="WED_AirportNode" id="73" parent_id="61">
            <sources/>
            <viewers/>
            <children/>
            <hierarchy hidden="0" locked="0" name="unnamed entity"/>
            <point ctrl_latitude_hi="0.000000000" ctrl_latitude_lo="0.000000000" ctrl_longitude_hi="0.000000000" ctrl_longitude_lo="0.000000000" latitude="50.083943096" longitude="20.201479528" split="1"/>
            <markings/>
        </object>
        <object class="WED_AirportNode" id="1617" parent_id="1602">
            <sources/>
            <viewers/>
            <children/>
            <hierarchy hidden="0" locked="0" name="Node 4"/>
            <point ctrl_latitude_hi="0.000000000" ctrl_latitude_lo="0.000000000" ctrl_longitude_hi="0.000000000" ctrl_longitude_lo="0.000000000" latitude="50.086062355" longitude="20.201124892" split="0"/>
            <markings/>
        </object>
        <object class="WED_AirportNode" id="74" parent_id="61">
            <sources/>
            <viewers/>
            <children/>
            <hierarchy hidden="0" locked="0" name="unnamed entity"/>
            <point ctrl_latitude_hi="0.000009230" ctrl_latitude_lo="-0.000007082" ctrl_longitude_hi="-0.000105750" ctrl_longitude_lo="0.000070075" latitude="50.084334639" longitude="20.199263110" split="1"/>
            <markings/>
        </object>
        <object class="WED_AirportNode" id="1618" parent_id="1602">
            <sources/>
            <viewers/>
            <children/>
            <hierarchy hidden="0" locked="0" name="Node 4"/>
            <point ctrl_latitude_hi="0.000000000" ctrl_latitude_lo="0.000000000" ctrl_longitude_hi="0.000000000" ctrl_longitude_lo="0.000000000" latitude="50.086062355" longitude="20.201124892" split="0"/>
            <markings/>
        </object>
        <object class="WED_AirportNode" id="75" parent_id="61">
            <sources/>
            <viewers/>
            <children/>
            <hierarchy hidden="0" locked="0" name="unnamed entity"/>
            <point ctrl_latitude_hi="-0.000030300" ctrl_latitude_lo="0.000036113" ctrl_longitude_hi="-0.000072900" ctrl_longitude_lo="0.000083924" latitude="50.084315864" longitude="20.198914120" split="1"/>
            <markings/>
        </object>
        <object class="WED_AirportChain" id="1619" parent_id="1533">
            <sources/>
            <viewers/>
            <children>
                <child id="1620"/>
                <child id="1621"/>
                <child id="1622"/>
                <child id="1623"/>
                <child id="1624"/>
                <child id="1625"/>
                <child id="1626"/>
                <child id="1627"/>
                <child id="1628"/>
                <child id="1629"/>
                <child id="1630"/>
                <child id="1631"/>
                <child id="1632"/>
                <child id="1633"/>
                <child id="1634"/>
                <child id="1635"/>
            </children>
            <hierarchy hidden="0" locked="0" name="Taxiway 1 Outer Ring"/>
            <airport_chain closed="1"/>
        </object>
        <object class="WED_AirportNode" id="76" parent_id="61">
            <sources/>
            <viewers/>
            <children/>
            <hierarchy hidden="0" locked="0" name="unnamed entity"/>
            <point ctrl_latitude_hi="0.000000000" ctrl_latitude_lo="0.000000000" ctrl_longitude_hi="0.000000000" ctrl_longitude_lo="0.000000000" latitude="50.084199150" longitude="20.198807125" split="0"/>
            <markings/>
        </object>
        <object class="WED_AirportNode" id="1620" parent_id="1619">
            <sources/>
            <viewers/>
            <children/>
            <hierarchy hidden="0" locked="0" name="Node 1"/>
            <point ctrl_latitude_hi="0.000000000" ctrl_latitude_lo="0.000000000" ctrl_longitude_hi="0.000000000" ctrl_longitude_lo="0.000000000" latitude="50.086217723" longitude="20.200974789" split="0"/>
            <markings/>
        </object>
        <object class="WED_Taxiway" id="77" parent_id="12">
            <sources/>
            <viewers/>
            <children>
                <child id="78"/>
            </children>
            <hierarchy hidden="0" locked="0" name="taxiway helipad 1"/>
            <taxiway heading="0.00" roughness="0.25" surface="Concrete"/>
        </object>
        <object class="WED_AirportNode" id="1621" parent_id="1619">
            <sources/>
            <viewers/>
            <children/>
            <hierarchy hidden="0" locked="0" name="Node 1"/>
            <point ctrl_latitude_hi="0.000000000" ctrl_latitude_lo="0.000000000" ctrl_longitude_hi="0.000000000" ctrl_longitude_lo="0.000000000" latitude="50.086217723" longitude="20.200974789" split="0"/>
            <markings/>
        </object>
        <object class="WED_AirportChain" id="78" parent_id="77">
            <sources/>
            <viewers/>
            <children>
                <child id="79"/>
                <child id="80"/>
                <child id="81"/>
                <child id="82"/>
                <child id="83"/>
                <child id="84"/>
                <child id="85"/>
                <child id="86"/>
                <child id="87"/>
                <child id="88"/>
                <child id="89"/>
                <child id="90"/>
                <child id="91"/>
                <child id="92"/>
                <child id="93"/>
                <child id="171"/>
                <child id="170"/>
                <child id="94"/>
                <child id="95"/>
                <child id="96"/>
                <child id="97"/>
                <child id="98"/>
                <child id="99"/>
                <child id="100"/>
                <child id="101"/>
            </children>
            <hierarchy hidden="0" locked="0" name="unnamed entity"/>
            <airport_chain closed="1"/>
        </object>
        <object class="WED_AirportNode" id="1622" parent_id="1619">
            <sources/>
            <viewers/>
            <children/>
            <hierarchy hidden="0" locked="0" name="Node 1"/>
            <point ctrl_latitude_hi="0.000000000" ctrl_latitude_lo="0.000000000" ctrl_longitude_hi="0.000000000" ctrl_longitude_lo="0.000000000" latitude="50.086217723" longitude="20.200974789" split="0"/>
            <markings/>
        </object>
        <object class="WED_AirportNode" id="79" parent_id="78">
            <sources/>
            <viewers/>
            <children/>
            <hierarchy hidden="0" locked="0" name="unnamed entity"/>
            <point ctrl_latitude_hi="0.000000000" ctrl_latitude_lo="0.000000000" ctrl_longitude_hi="0.000000000" ctrl_longitude_lo="0.000000000" latitude="50.084655732" longitude="20.203378932" split="0"/>
            <markings/>
        </object>
        <object class="WED_AirportNode" id="1623" parent_id="1619">
            <sources/>
            <viewers/>
            <children/>
            <hierarchy hidden="0" locked="0" name="Node 1"/>
            <point ctrl_latitude_hi="0.000000000" ctrl_latitude_lo="0.000000000" ctrl_longitude_hi="0.000000000" ctrl_longitude_lo="0.000000000" latitude="50.086217723" longitude="20.200974789" split="0"/>
            <markings/>
        </object>
        <object class="WED_AirportNode" id="80" parent_id="78">
            <sources/>
            <viewers/>
            <children/>
            <hierarchy hidden="0" locked="0" name="unnamed entity"/>
            <point ctrl_latitude_hi="0.000000000" ctrl_latitude_lo="0.000000000" ctrl_longitude_hi="0.000000000" ctrl_longitude_lo="0.000000000" latitude="50.084523622" longitude="20.203393274" split="0"/>
            <markings/>
        </object>
        <object class="WED_AirportNode" id="1624" parent_id="1619">
            <sources/>
            <viewers/>
            <children/>
            <hierarchy hidden="0" locked="0" name="Node 2"/>
            <point ctrl_latitude_hi="0.000000000" ctrl_latitude_lo="0.000000000" ctrl_longitude_hi="0.000000000" ctrl_longitude_lo="0.000000000" latitude="50.086216727" longitude="20.201016696" split="0"/>
            <markings/>
        </object>
        <object class="WED_AirportNode" id="81" parent_id="78">
            <sources/>
            <viewers/>
            <children/>
            <hierarchy hidden="0" locked="0" name="unnamed entity"/>
            <point ctrl_latitude_hi="-0.000145978" ctrl_latitude_lo="0.000000000" ctrl_longitude_hi="0.000069919" ctrl_longitude_lo="0.000000000" latitude="50.084524734" longitude="20.203607344" split="1"/>
            <markings/>
        </object>
        <object class="WED_AirportNode" id="1625" parent_id="1619">
            <sources/>
            <viewers/>
            <children/>
            <hierarchy hidden="0" locked="0" name="Node 2"/>
            <point ctrl_latitude_hi="0.000000000" ctrl_latitude_lo="0.000000000" ctrl_longitude_hi="0.000000000" ctrl_longitude_lo="0.000000000" latitude="50.086216727" longitude="20.201016696" split="0"/>
            <markings/>
        </object>
        <object class="WED_AirportNode" id="82" parent_id="78">
            <sources/>
            <viewers/>
            <children/>
            <hierarchy hidden="0" locked="0" name="unnamed entity"/>
            <point ctrl_latitude_hi="0.000000000" ctrl_latitude_lo="0.000000000" ctrl_longitude_hi="0.000000000" ctrl_longitude_lo="0.000000000" latitude="50.084375140" longitude="20.203907976" split="0"/>
            <markings/>
        </object>
        <object class="WED_AirportNode" id="1626" parent_id="1619">
            <sources/>
            <viewers/>
            <children/>
            <hierarchy hidden="0" locked="0" name="Node 2"/>
            <point ctrl_latitude_hi="0.000000000" ctrl_latitude_lo="0.000000000" ctrl_longitude_hi="0.000000000" ctrl_longitude_lo="0.000000000" latitude="50.086216727" longitude="20.201016696" split="0"/>
            <markings/>
        </object>
        <object class="WED_AirportNode" id="83" parent_id="78">
            <sources/>
            <viewers/>
            <children/>
            <hierarchy hidden="0" locked="0" name="unnamed entity"/>
            <point ctrl_latitude_hi="0.000000000" ctrl_latitude_lo="0.000000000" ctrl_longitude_hi="0.000000000" ctrl_longitude_lo="0.000000000" latitude="50.084111478" longitude="20.203863953" split="0"/>
            <markings/>
        </object>
        <object class="WED_AirportNode" id="1627" parent_id="1619">
            <sources/>
            <viewers/>
            <children/>
            <hierarchy hidden="0" locked="0" name="Node 2"/>
            <point ctrl_latitude_hi="0.000000000" ctrl_latitude_lo="0.000000000" ctrl_longitude_hi="0.000000000" ctrl_longitude_lo="0.000000000" latitude="50.086216727" longitude="20.201016696" split="0"/>
            <markings/>
        </object>
        <object class="WED_AirportNode" id="84" parent_id="78">
            <sources/>
            <viewers/>
            <children/>
            <hierarchy hidden="0" locked="0" name="unnamed entity"/>
            <point ctrl_latitude_hi="0.000000000" ctrl_latitude_lo="0.000062156" ctrl_longitude_hi="0.000000000" ctrl_longitude_lo="0.000259753" latitude="50.083956528" longitude="20.203551789" split="1"/>
            <markings/>
        </object>
        <object class="WED_AirportNode" id="1628" parent_id="1619">
            <sources/>
            <viewers/>
            <children/>
            <hierarchy hidden="0" locked="0" name="Node 3"/>
            <point ctrl_latitude_hi="0.000000000" ctrl_latitude_lo="0.000000000" ctrl_longitude_hi="0.000000000" ctrl_longitude_lo="0.000000000" latitude="50.086235755" longitude="20.201019392" split="0"/>
            <markings/>
        </object>
        <object class="WED_AirportNode" id="85" parent_id="78">
            <sources/>
            <viewers/>
            <children/>
            <hierarchy hidden="0" locked="0" name="unnamed entity"/>
            <point ctrl_latitude_hi="0.000000000" ctrl_latitude_lo="0.000000000" ctrl_longitude_hi="0.000000000" ctrl_longitude_lo="0.000000000" latitude="50.083942945" longitude="20.201479438" split="0"/>
            <markings/>
        </object>
        <object class="WED_AirportNode" id="1629" parent_id="1619">
            <sources/>
            <viewers/>
            <children/>
            <hierarchy hidden="0" locked="0" name="Node 3"/>
            <point ctrl_latitude_hi="0.000000000" ctrl_latitude_lo="0.000000000" ctrl_longitude_hi="0.000000000" ctrl_longitude_lo="0.000000000" latitude="50.086235755" longitude="20.201019392" split="0"/>
            <markings/>
        </object>
        <object class="WED_AirportNode" id="86" parent_id="78">
            <sources/>
            <viewers/>
            <children/>
            <hierarchy hidden="0" locked="0" name="unnamed entity"/>
            <point ctrl_latitude_hi="0.000000000" ctrl_latitude_lo="0.000000000" ctrl_longitude_hi="0.000000000" ctrl_longitude_lo="0.000000000" latitude="50.083943319" longitude="20.201359318" split="0"/>
            <markings/>
        </object>
        <object class="WED_AirportNode" id="1630" parent_id="1619">
            <sources/>
            <viewers/>
            <children/>
            <hierarchy hidden="0" locked="0" name="Node 3"/>
            <point ctrl_latitude_hi="0.000000000" ctrl_latitude_lo="0.000000000" ctrl_longitude_hi="0.000000000" ctrl_longitude_lo="0.000000000" latitude="50.086235755" longitude="20.201019392" split="0"/>
            <markings/>
        </object>
        <object class="WED_AirportNode" id="87" parent_id="78">
            <sources/>
            <viewers/>
            <children/>
            <hierarchy hidden="0" locked="0" name="unnamed entity"/>
            <point ctrl_latitude_hi="0.000000000" ctrl_latitude_lo="0.000000000" ctrl_longitude_hi="0.000000000" ctrl_longitude_lo="0.000000000" latitude="50.083933431" longitude="20.200284543" split="0"/>
            <markings/>
        </object>
        <object class="WED_AirportNode" id="1631" parent_id="1619">
            <sources/>
            <viewers/>
            <children/>
            <hierarchy hidden="0" locked="0" name="Node 3"/>
            <point ctrl_latitude_hi="0.000000000" ctrl_latitude_lo="0.000000000" ctrl_longitude_hi="0.000000000" ctrl_longitude_lo="0.000000000" latitude="50.086235755" longitude="20.201019392" split="0"/>
            <markings/>
        </object>
        <object class="WED_AirportNode" id="88" parent_id="78">
            <sources/>
            <viewers/>
            <children/>
            <hierarchy hidden="0" locked="0" name="unnamed entity"/>
            <point ctrl_latitude_hi="0.000000000" ctrl_latitude_lo="0.000000000" ctrl_longitude_hi="0.000000000" ctrl_longitude_lo="0.000000000" latitude="50.083937397" longitude="20.200233618" split="0"/>
            <markings/>
        </object>
        <object class="WED_AirportNode" id="1632" parent_id="1619">
            <sources/>
            <viewers/>
            <children/>
            <hierarchy hidden="0" locked="0" name="Node 4"/>
            <point ctrl_latitude_hi="0.000000000" ctrl_latitude_lo="0.000000000" ctrl_longitude_hi="0.000000000" ctrl_longitude_lo="0.000000000" latitude="50.086235755" longitude="20.200976257" split="0"/>
            <markings/>
        </object>
        <object class="WED_AirportNode" id="89" parent_id="78">
            <sources/>
            <viewers/>
            <children/>
            <hierarchy hidden="0" locked="0" name="unnamed entity"/>
            <point ctrl_latitude_hi="0.000000000" ctrl_latitude_lo="0.000000000" ctrl_longitude_hi="0.000000000" ctrl_longitude_lo="0.000000000" latitude="50.083935979" longitude="20.200072310" split="0"/>
            <markings/>
        </object>
        <object class="WED_AirportNode" id="1633" parent_id="1619">
            <sources/>
            <viewers/>
            <children/>
            <hierarchy hidden="0" locked="0" name="Node 4"/>
            <point ctrl_latitude_hi="0.000000000" ctrl_latitude_lo="0.000000000" ctrl_longitude_hi="0.000000000" ctrl_longitude_lo="0.000000000" latitude="50.086235755" longitude="20.200976257" split="0"/>
            <markings/>
        </object>
        <object class="WED_AirportNode" id="90" parent_id="78">
            <sources/>
            <viewers/>
            <children/>
            <hierarchy hidden="0" locked="0" name="unnamed entity"/>
            <point ctrl_latitude_hi="0.000000000" ctrl_latitude_lo="0.000000000" ctrl_longitude_hi="0.000000000" ctrl_longitude_lo="0.000000000" latitude="50.083933030" longitude="20.199737214" split="0"/>
            <markings/>
        </object>
        <object class="WED_AirportNode" id="1634" parent_id="1619">
            <sources/>
            <viewers/>
            <children/>
            <hierarchy hidden="0" locked="0" name="Node 4"/>
            <point ctrl_latitude_hi="0.000000000" ctrl_latitude_lo="0.000000000" ctrl_longitude_hi="0.000000000" ctrl_longitude_lo="0.000000000" latitude="50.086235755" longitude="20.200976257" split="0"/>
            <markings/>
        </object>
        <object class="WED_AirportNode" id="91" parent_id="78">
            <sources/>
            <viewers/>
            <children/>
            <hierarchy hidden="0" locked="0" name="unnamed entity"/>
            <point ctrl_latitude_hi="0.000000000" ctrl_latitude_lo="0.000000000" ctrl_longitude_hi="0.000000000" ctrl_longitude_lo="0.000000000" latitude="50.083900301" longitude="20.199741258" split="0"/>
            <markings/>
        </object>
        <object class="WED_AirportNode" id="1635" parent_id="1619">
            <sources/>
            <viewers/>
            <children/>
            <hierarchy hidden="0" locked="0" name="Node 4"/>
            <point ctrl_latitude_hi="0.000000000" ctrl_latitude_lo="0.000000000" ctrl_longitude_hi="0.000000000" ctrl_longitude_lo="0.000000000" latitude="50.086235755" longitude="20.200976257" split="0"/>
            <markings/>
        </object>
        <object class="WED_AirportNode" id="92" parent_id="78">
            <sources/>
            <viewers/>
            <children/>
            <hierarchy hidden="0" locked="0" name="unnamed entity"/>
            <point ctrl_latitude_hi="0.000000000" ctrl_latitude_lo="0.000000000" ctrl_longitude_hi="0.000000000" ctrl_longitude_lo="0.000000000" latitude="50.083897547" longitude="20.199958657" split="0"/>
            <markings/>
        </object>
        <object class="WED_AirportChain" id="1636" parent_id="1533">
            <sources/>
            <viewers/>
            <children>
                <child id="1637"/>
                <child id="1638"/>
                <child id="1639"/>
                <child id="1640"/>
                <child id="1641"/>
                <child id="1642"/>
                <child id="1643"/>
                <child id="1644"/>
                <child id="1645"/>
                <child id="1646"/>
                <child id="1647"/>
                <child id="1648"/>
                <child id="1649"/>
                <child id="1650"/>
                <child id="1651"/>
                <child id="1652"/>
            </children>
            <hierarchy hidden="0" locked="0" name="Taxiway 1 Outer Ring"/>
            <airport_chain closed="1"/>
        </object>
        <object class="WED_AirportNode" id="93" parent_id="78">
            <sources/>
            <viewers/>
            <children/>
            <hierarchy hidden="0" locked="0" name="unnamed entity"/>
            <point ctrl_latitude_hi="0.000000000" ctrl_latitude_lo="0.000000000" ctrl_longitude_hi="0.000000000" ctrl_longitude_lo="0.000000000" latitude="50.083861344" longitude="20.200037704" split="0"/>
            <markings/>
        </object>
        <object class="WED_AirportNode" id="1637" parent_id="1636">
            <sources/>
            <viewers/>
            <children/>
            <hierarchy hidden="0" locked="0" name="Node 1"/>
            <point ctrl_latitude_hi="0.000000000" ctrl_latitude_lo="0.000000000" ctrl_longitude_hi="0.000000000" ctrl_longitude_lo="0.000000000" latitude="50.086193977" longitude="20.201518477" split="0"/>
            <markings/>
        </object>
        <object class="WED_AirportNode" id="94" parent_id="78">
            <sources/>
            <viewers/>
            <children/>
            <hierarchy hidden="0" locked="0" name="unnamed entity"/>
            <point ctrl_latitude_hi="0.000031080" ctrl_latitude_lo="0.000000000" ctrl_longitude_hi="0.000356562" ctrl_longitude_lo="0.000000000" latitude="50.083916977" longitude="20.203515420" split="1"/>
            <markings/>
        </object>
        <object class="WED_AirportNode" id="1638" parent_id="1636">
            <sources/>
            <viewers/>
            <children/>
            <hierarchy hidden="0" locked="0" name="Node 1"/>
            <point ctrl_latitude_hi="0.000000000" ctrl_latitude_lo="0.000000000" ctrl_longitude_hi="0.000000000" ctrl_longitude_lo="0.000000000" latitude="50.086193977" longitude="20.201518477" split="0"/>
            <markings/>
        </object>
        <object class="WED_AirportNode" id="95" parent_id="78">
            <sources/>
            <viewers/>
            <children/>
            <hierarchy hidden="0" locked="0" name="unnamed entity"/>
            <point ctrl_latitude_hi="0.000000000" ctrl_latitude_lo="0.000000000" ctrl_longitude_hi="0.000000000" ctrl_longitude_lo="0.000000000" latitude="50.084140356" longitude="20.203953006" split="0"/>
            <markings/>
        </object>
        <object class="WED_AirportNode" id="1639" parent_id="1636">
            <sources/>
            <viewers/>
            <children/>
            <hierarchy hidden="0" locked="0" name="Node 1"/>
            <point ctrl_latitude_hi="0.000000000" ctrl_latitude_lo="0.000000000" ctrl_longitude_hi="0.000000000" ctrl_longitude_lo="0.000000000" latitude="50.086193977" longitude="20.201518477" split="0"/>
            <markings/>
        </object>
        <object class="WED_AirportNode" id="96" parent_id="78">
            <sources/>
            <viewers/>
            <children/>
            <hierarchy hidden="0" locked="0" name="unnamed entity"/>
            <point ctrl_latitude_hi="0.000000000" ctrl_latitude_lo="0.000000000" ctrl_longitude_hi="0.000000000" ctrl_longitude_lo="0.000000000" latitude="50.084380687" longitude="20.203990187" split="0"/>
            <markings/>
        </object>
        <object class="WED_AirportNode" id="1640" parent_id="1636">
            <sources/>
            <viewers/>
            <children/>
            <hierarchy hidden="0" locked="0" name="Node 1"/>
            <point ctrl_latitude_hi="0.000000000" ctrl_latitude_lo="0.000000000" ctrl_longitude_hi="0.000000000" ctrl_longitude_lo="0.000000000" latitude="50.086193977" longitude="20.201518477" split="0"/>
            <markings/>
        </object>
        <object class="WED_AirportNode" id="97" parent_id="78">
            <sources/>
            <viewers/>
            <children/>
            <hierarchy hidden="0" locked="0" name="unnamed entity"/>
            <point ctrl_latitude_hi="0.000000000" ctrl_latitude_lo="-0.000157510" ctrl_longitude_hi="0.000000000" ctrl_longitude_lo="-0.000068500" latitude="50.084547490" longitude="20.204290988" split="1"/>
            <markings/>
        </object>
        <object class="WED_AirportNode" id="1641" parent_id="1636">
            <sources/>
            <viewers/>
            <children/>
            <hierarchy hidden="0" locked="0" name="Node 2"/>
            <point ctrl_latitude_hi="0.000000000" ctrl_latitude_lo="0.000000000" ctrl_longitude_hi="0.000000000" ctrl_longitude_lo="0.000000000" latitude="50.086192981" longitude="20.201560384" split="0"/>
            <markings/>
        </object>
        <object class="WED_AirportNode" id="98" parent_id="78">
            <sources/>
            <viewers/>
            <children/>
            <hierarchy hidden="0" locked="0" name="unnamed entity"/>
            <point ctrl_latitude_hi="0.000000000" ctrl_latitude_lo="0.000000000" ctrl_longitude_hi="0.000000000" ctrl_longitude_lo="0.000000000" latitude="50.084558551" longitude="20.204509175" split="0"/>
            <markings/>
        </object>
        <object class="WED_AirportNode" id="1642" parent_id="1636">
            <sources/>
            <viewers/>
            <children/>
            <hierarchy hidden="0" locked="0" name="Node 2"/>
            <point ctrl_latitude_hi="0.000000000" ctrl_latitude_lo="0.000000000" ctrl_longitude_hi="0.000000000" ctrl_longitude_lo="0.000000000" latitude="50.086192981" longitude="20.201560384" split="0"/>
            <markings/>
        </object>
        <object class="WED_AirportNode" id="99" parent_id="78">
            <sources/>
            <viewers/>
            <children/>
            <hierarchy hidden="0" locked="0" name="unnamed entity"/>
            <point ctrl_latitude_hi="0.000000000" ctrl_latitude_lo="0.000000000" ctrl_longitude_hi="0.000000000" ctrl_longitude_lo="0.000000000" latitude="50.084686286" longitude="20.204503465" split="0"/>
            <markings/>
        </object>
        <object class="WED_AirportNode" id="1643" parent_id="1636">
            <sources/>
            <viewers/>
            <children/>
            <hierarchy hidden="0" locked="0" name="Node 2"/>
            <point ctrl_latitude_hi="0.000000000" ctrl_latitude_lo="0.000000000" ctrl_longitude_hi="0.000000000" ctrl_longitude_lo="0.000000000" latitude="50.086192981" longitude="20.201560384" split="0"/>
            <markings/>
        </object>
        <object class="WED_AirportNode" id="100" parent_id="78">
            <sources/>
            <viewers/>
            <children/>
            <hierarchy hidden="0" locked="0" name="unnamed entity"/>
            <point ctrl_latitude_hi="0.000187291" ctrl_latitude_lo="0.000000000" ctrl_longitude_hi="-0.000156841" ctrl_longitude_lo="0.000000000" latitude="50.084682996" longitude="20.204277858" split="1"/>
            <markings/>
        </object>
        <object class="WED_AirportNode" id="1644" parent_id="1636">
            <sources/>
            <viewers/>
            <children/>
            <hierarchy hidden="0" locked="0" name="Node 2"/>
            <point ctrl_latitude_hi="0.000000000" ctrl_latitude_lo="0.000000000" ctrl_longitude_hi="0.000000000" ctrl_longitude_lo="0.000000000" latitude="50.086192981" longitude="20.201560384" split="0"/>
            <markings/>
        </object>
        <object class="WED_AirportNode" id="101" parent_id="78">
            <sources/>
            <viewers/>
            <children/>
            <hierarchy hidden="0" locked="0" name="unnamed entity"/>
            <point ctrl_latitude_hi="0.000000000" ctrl_latitude_lo="0.000219356" ctrl_longitude_hi="0.000000000" ctrl_longitude_lo="0.000124073" latitude="50.084660887" longitude="20.203605122" split="1"/>
            <markings/>
        </object>
        <object class="WED_AirportNode" id="1645" parent_id="1636">
            <sources/>
            <viewers/>
            <children/>
            <hierarchy hidden="0" locked="0" name="Node 3"/>
            <point ctrl_latitude_hi="0.000000000" ctrl_latitude_lo="0.000000000" ctrl_longitude_hi="0.000000000" ctrl_longitude_lo="0.000000000" latitude="50.086212009" longitude="20.201563080" split="0"/>
            <markings/>
        </object>
        <object class="WED_Taxiway" id="102" parent_id="12">
            <sources/>
            <viewers/>
            <children>
                <child id="103"/>
                <child id="272"/>
                <child id="277"/>
                <child id="288"/>
                <child id="295"/>
                <child id="306"/>
            </children>
            <hierarchy hidden="0" locked="0" name="hangar field"/>
            <taxiway heading="0.00" roughness="0.25" surface="Concrete"/>
        </object>
        <object class="WED_AirportNode" id="1646" parent_id="1636">
            <sources/>
            <viewers/>
            <children/>
            <hierarchy hidden="0" locked="0" name="Node 3"/>
            <point ctrl_latitude_hi="0.000000000" ctrl_latitude_lo="0.000000000" ctrl_longitude_hi="0.000000000" ctrl_longitude_lo="0.000000000" latitude="50.086212009" longitude="20.201563080" split="0"/>
            <markings/>
        </object>
        <object class="WED_AirportChain" id="103" parent_id="102">
            <sources/>
            <viewers/>
            <children>
                <child id="104"/>
                <child id="270"/>
                <child id="269"/>
                <child id="271"/>
                <child id="105"/>
                <child id="106"/>
                <child id="107"/>
                <child id="164"/>
                <child id="165"/>
                <child id="166"/>
                <child id="108"/>
                <child id="240"/>
                <child id="239"/>
                <child id="241"/>
                <child id="109"/>
                <child id="163"/>
                <child id="161"/>
                <child id="160"/>
                <child id="162"/>
                <child id="110"/>
                <child id="111"/>
                <child id="112"/>
                <child id="113"/>
                <child id="114"/>
                <child id="159"/>
                <child id="158"/>
                <child id="115"/>
                <child id="116"/>
                <child id="157"/>
                <child id="156"/>
                <child id="117"/>
            </children>
            <hierarchy hidden="0" locked="0" name="unnamed entity"/>
            <airport_chain closed="1"/>
        </object>
        <object class="WED_AirportNode" id="1647" parent_id="1636">
            <sources/>
            <viewers/>
            <children/>
            <hierarchy hidden="0" locked="0" name="Node 3"/>
            <point ctrl_latitude_hi="0.000000000" ctrl_latitude_lo="0.000000000" ctrl_longitude_hi="0.000000000" ctrl_longitude_lo="0.000000000" latitude="50.086212009" longitude="20.201563080" split="0"/>
            <markings/>
        </object>
        <object class="WED_AirportNode" id="104" parent_id="103">
            <sources/>
            <viewers/>
            <children/>
            <hierarchy hidden="0" locked="0" name="unnamed entity"/>
            <point ctrl_latitude_hi="0.000000000" ctrl_latitude_lo="0.000000000" ctrl_longitude_hi="0.000000000" ctrl_longitude_lo="0.000000000" latitude="50.084000297" longitude="20.195955383" split="0"/>
            <markings/>
        </object>
        <object class="WED_AirportNode" id="1648" parent_id="1636">
            <sources/>
            <viewers/>
            <children/>
            <hierarchy hidden="0" locked="0" name="Node 3"/>
            <point ctrl_latitude_hi="0.000000000" ctrl_latitude_lo="0.000000000" ctrl_longitude_hi="0.000000000" ctrl_longitude_lo="0.000000000" latitude="50.086212009" longitude="20.201563080" split="0"/>
            <markings/>
        </object>
        <object class="WED_AirportNode" id="105" parent_id="103">
            <sources/>
            <viewers/>
            <children/>
            <hierarchy hidden="0" locked="0" name="unnamed entity"/>
            <point ctrl_latitude_hi="0.000000000" ctrl_latitude_lo="0.000000000" ctrl_longitude_hi="0.000000000" ctrl_longitude_lo="0.000000000" latitude="50.083669838" longitude="20.197742165" split="0"/>
            <markings/>
        </object>
        <object class="WED_AirportNode" id="1649" parent_id="1636">
            <sources/>
            <viewers/>
            <children/>
            <hierarchy hidden="0" locked="0" name="Node 4"/>
            <point ctrl_latitude_hi="0.000000000" ctrl_latitude_lo="0.000000000" ctrl_longitude_hi="0.000000000" ctrl_longitude_lo="0.000000000" latitude="50.086212009" longitude="20.201519945" split="0"/>
            <markings/>
        </object>
        <object class="WED_AirportNode" id="106" parent_id="103">
            <sources/>
            <viewers/>
            <children/>
            <hierarchy hidden="0" locked="0" name="unnamed entity"/>
            <point ctrl_latitude_hi="0.000000000" ctrl_latitude_lo="0.000000000" ctrl_longitude_hi="0.000000000" ctrl_longitude_lo="0.000000000" latitude="50.083675969" longitude="20.198455609" split="0"/>
            <markings/>
        </object>
        <object class="WED_AirportNode" id="1650" parent_id="1636">
            <sources/>
            <viewers/>
            <children/>
            <hierarchy hidden="0" locked="0" name="Node 4"/>
            <point ctrl_latitude_hi="0.000000000" ctrl_latitude_lo="0.000000000" ctrl_longitude_hi="0.000000000" ctrl_longitude_lo="0.000000000" latitude="50.086212009" longitude="20.201519945" split="0"/>
            <markings/>
        </object>
        <object class="WED_AirportNode" id="107" parent_id="103">
            <sources/>
            <viewers/>
            <children/>
            <hierarchy hidden="0" locked="0" name="unnamed entity"/>
            <point ctrl_latitude_hi="0.000000000" ctrl_latitude_lo="0.000000000" ctrl_longitude_hi="0.000000000" ctrl_longitude_lo="0.000000000" latitude="50.083524460" longitude="20.198474395" split="0"/>
            <markings/>
        </object>
        <object class="WED_AirportNode" id="1651" parent_id="1636">
            <sources/>
            <viewers/>
            <children/>
            <hierarchy hidden="0" locked="0" name="Node 4"/>
            <point ctrl_latitude_hi="0.000000000" ctrl_latitude_lo="0.000000000" ctrl_longitude_hi="0.000000000" ctrl_longitude_lo="0.000000000" latitude="50.086212009" longitude="20.201519945" split="0"/>
            <markings/>
        </object>
        <object class="WED_AirportNode" id="108" parent_id="103">
            <sources/>
            <viewers/>
            <children/>
            <hierarchy hidden="0" locked="0" name="unnamed entity"/>
            <point ctrl_latitude_hi="0.000000000" ctrl_latitude_lo="0.000000000" ctrl_longitude_hi="0.000000000" ctrl_longitude_lo="0.000000000" latitude="50.083310883" longitude="20.198725290" split="0"/>
            <markings/>
        </object>
        <object class="WED_AirportNode" id="1652" parent_id="1636">
